id,season_2019-2020,league,team_type,club,stadium,capacity,street,postcode,city,federal_state,latitude,longitude,homepage,wikipedia_de,wikipedia_en,openstreetmap_object
1,germany_league_1,Bundesliga,1,FC Bayern München,Allianz Arena,75.000,Werner-Heisenberg-Allee 25,80939,München,BY,48.21880,11.62465,fcbayern.com,https://de.wikipedia.org/wiki/FC_Bayern_M%C3%BCnchen,https://en.wikipedia.org/wiki/FC_Bayern_Munich,https://www.openstreetmap.org/way/4431170
2,germany_league_1,Bundesliga,1,Borussia Dortmund,Signal Iduna Park,81.365,Strobelallee 50,44139,Dortmund,NW,51.49257,7.45177,bvb.de,https://de.wikipedia.org/wiki/Borussia_Dortmund,https://en.wikipedia.org/wiki/Borussia_Dortmund,https://www.openstreetmap.org/relation/531985
3,germany_league_1,Bundesliga,1,RB Leipzig,Red Bull Arena,42.959,Am Sportforum 2,04105,Leipzig,SN,51.34579,12.34823,dierotenbullen.com,https://de.wikipedia.org/wiki/RB_Leipzig,https://en.wikipedia.org/wiki/RB_Leipzig,https://www.openstreetmap.org/way/8015060
4,germany_league_1,Bundesliga,1,Bayer Leverkusen,BayArena,30.210,Bismarckstraße 122-124,51373,Leverkusen,NW,51.03822,7.00221,bayer04.de,https://de.wikipedia.org/wiki/Bayer_04_Leverkusen,https://en.wikipedia.org/wiki/Bayer_04_Leverkusen,https://www.openstreetmap.org/relation/5403784
5,germany_league_1,Bundesliga,1,Borussia Mönchengladbach,Borussia-Park,54.022,Hennes Weisweiler Allee 1,41179,Mönchengladbach,NW,51.17463,6.38539,borussia.de,https://de.wikipedia.org/wiki/Borussia_M%C3%B6nchengladbach,https://de.wikipedia.org/wiki/Borussia_M%C3%B6nchengladbach,https://www.openstreetmap.org/way/41910550
6,germany_league_1,Bundesliga,1,VFL Wolfsburg,Volkswagen Arena,30.000,In den Allerwiesen 1,38446,Wolfsburg,NI,52.43268,10.80385,vfl-wolfsburg.de,https://de.wikipedia.org/wiki/VfL_Wolfsburg,https://en.wikipedia.org/wiki/VfL_Wolfsburg,https://www.openstreetmap.org/relation/557478
7,germany_league_1,Bundesliga,1,Eintracht Frankfurt,Commerzbank Arena,51.500,Mörfelder Landstraße 362,60528,Frankfurt am Main,HE,50.06860,8.64552,eintracht-frankfurt.de,https://de.wikipedia.org/wiki/Eintracht_Frankfurt,https://en.wikipedia.org/wiki/Eintracht_Frankfurt,https://www.openstreetmap.org/way/5117941
8,germany_league_1,Bundesliga,1,Werder Bremen,Wohninvest Weser-Stadion,42.100,Franz-Böhmert-Straße 1,28205,Bremen,HB,53.06644,8.83762,werder.de,https://de.wikipedia.org/wiki/Werder_Bremen,https://en.wikipedia.org/wiki/Werder_Bremen,https://www.openstreetmap.org/way/160379314
9,germany_league_1,Bundesliga,1,TSG 1899 Hoffenheim,PreZero Arena,30.150,Dietmar-Hopp-Straße 1,74889,Sinsheim,BW,49.23803,8.88764,achtzehn99.de,https://de.wikipedia.org/wiki/TSG_1899_Hoffenheim,https://en.wikipedia.org/wiki/TSG_1899_Hoffenheim,https://www.openstreetmap.org/way/29987143
10,germany_league_1,Bundesliga,1,Fortuna Düsseldorf,Merkur Spiel-Arena,54.600,Arena-Straße 1,40474,Düsseldorf,NW,51.26164,6.73314,f95.de,https://de.wikipedia.org/wiki/Fortuna_D%C3%BCsseldorf,https://en.wikipedia.org/wiki/Fortuna_Düsseldorf,https://www.openstreetmap.org/way/24547706
11,germany_league_1,Bundesliga,1,Hertha BSC,Olympiastadion Berlin,74.649,Olympischer Platz 3,14053,Berlin,BE,52.51465,13.23951,herthabsc.de,https://de.wikipedia.org/wiki/Hertha_BSC,https://en.wikipedia.org/wiki/Hertha_BSC,https://www.openstreetmap.org/way/38862723
12,germany_league_1,Bundesliga,1,1. FSV Mainz 05,Opel Arena,33.305,Eugen-Salomon-Straße 1,55128,Mainz,RP,49.98392,8.22439,mainz05.de,https://de.wikipedia.org/wiki/1._FSV_Mainz_05,https://en.wikipedia.org/wiki/1._FSV_Mainz_05,https://www.openstreetmap.org/relation/1338495
13,germany_league_1,Bundesliga,1,SC Freiburg,Schwarzwald Stadion,24.000,Schwarzwaldstraße 193 ,79117,Freiburg im Breisgau,BW,47.98896,7.89288,scfreiburg.com,https://de.wikipedia.org/wiki/SC_Freiburg,https://en.wikipedia.org/wiki/SC_Freiburg,https://www.openstreetmap.org/relation/1614762
14,germany_league_1,Bundesliga,1,FC Schalke 04,Veltins-Arena,62.000,Arenaring 1,45891,Gelsenkirchen,NW,51.55459,7.06759,schalke04.de,https://de.wikipedia.org/wiki/FC_Schalke_04,https://en.wikipedia.org/wiki/FC_Schalke_04,https://www.openstreetmap.org/way/147192563
15,germany_league_1,Bundesliga,1,FC Augsburg,WWK-Arena,30.660,Bürgermeister-Ulrich-Straße 90,86199,Augsburg,BY,48.32312,10.88595,fcaugsburg.de,https://de.wikipedia.org/wiki/FC_Augsburg,https://en.wikipedia.org/wiki/FC_Augsburg,https://www.openstreetmap.org/relation/189459
16,germany_league_1,Bundesliga,1,1. FC Köln,Rheinenergiestadion,49.698,Aachener Straße 999,50933,Köln,NW,50.93352,6.87510,fc.de,https://de.wikipedia.org/wiki/1._FC_Köln,https://en.wikipedia.org/wiki/1._FC_Köln,https://www.openstreetmap.org/relation/271681
17,germany_league_1,Bundesliga,1,SC Paderborn 07,Benteler-Arena,15.000,Paderborner Straße 89,33104,Paderborn,NW,51.73078,8.71106,scp07.de,https://de.wikipedia.org/wiki/SC_Paderborn_07,https://en.wikipedia.org/wiki/SC_Paderborn_07,https://www.openstreetmap.org/relation/4576513
18,germany_league_1,Bundesliga,1,1. FC Union Berlin,Stadion An der Alten Försterei,22.012,An der Wuhlheide 263,12555,Berlin,BE,52.45737,13.56814,fc-union-berlin.de,https://de.wikipedia.org/wiki/1._FC_Union_Berlin,https://en.wikipedia.org/wiki/1._FC_Union_Berlin,https://www.openstreetmap.org/way/43127006
19,germany_league_2,2. Bundesliga,1,VFB Stuttgart,Mercedes-Benz Arena,60.449,Mercedesstraße 87 Stuttgart,70372,Stuttgart,BW,48.79225,9.23211,vfb.de,https://de.wikipedia.org/wiki/VfB_Stuttgart,https://en.wikipedia.org/wiki/VfB_Stuttgart,https://www.openstreetmap.org/relation/9207449
20,germany_league_2,2. Bundesliga,1,Hannover 96,HDI Arena,49.200,Robert-Enke-Straße 3,30169,Hannover,NI,52.36003,9.73122,hannover96.de,https://de.wikipedia.org/wiki/Hannover_96,https://en.wikipedia.org/wiki/Hannover_96,https://www.openstreetmap.org/relation/92928
21,germany_league_2,2. Bundesliga,1,1. FC Nürnberg,Max-Morlock-Stadion,50.000,Max-Morlock-Platz 1,90471,Nürnberg,BY,49.42626,11.12570,fcn.de,https://de.wikipedia.org/wiki/1._FC_N%C3%BCrnberg,https://en.wikipedia.org/wiki/1._FC_N%C3%BCrnberg,https://www.openstreetmap.org/way/144526202
22,germany_league_2,2. Bundesliga,1,Hamburger SV,Volksparkstadion,57.000,Sylversterallee 7,22525,Hamburg,HH,53.58717,9.89864,hsv-ev.de,https://de.wikipedia.org/wiki/Hamburger_SV,https://en.wikipedia.org/wiki/Hamburger_SV,https://www.openstreetmap.org/way/19617443
23,germany_league_2,2. Bundesliga,1,1. FC Heidenheim,Voith-Arena,15.000,Schloßhaustraße 162,89522,Heidenheim an der Brenz,BW,48.66845,10.13921,fc-heidenheim.de,https://de.wikipedia.org/wiki/1._FC_Heidenheim,https://en.wikipedia.org/wiki/1._FC_Heidenheim,https://www.openstreetmap.org/way/681162690
24,germany_league_2,2. Bundesliga,1,Holstein Kiel,Holstein-Stadion,15.034,Westring 501,24106,Kiel,SH,54.34918,10.12370,holstein-kiel.de,https://de.wikipedia.org/wiki/Holstein_Kiel,https://en.wikipedia.org/wiki/Holstein_Kiel,https://www.openstreetmap.org/relation/277125
25,germany_league_2,2. Bundesliga,1,Arminia Bielefeld,SchücoArena,26.515,Melanchthonstraße 31A,33615,Bielefeld,NW,52.03203,8.51674,arminia-bielefeld.de,https://de.wikipedia.org/wiki/Arminia_Bielefeld,https://en.wikipedia.org/wiki/Arminia_Bielefeld,https://www.openstreetmap.org/way/19738505
26,germany_league_2,2. Bundesliga,1,SSV Jahn Regensburg,Continental Arena,15.210,Franz-Josef-Strauß-Allee 22,93053,Regensburg,BY,48.99080,12.10741,ssv-jahn.de,https://de.wikipedia.org/wiki/SSV_Jahn_Regensburg,https://en.wikipedia.org/wiki/SSV_Jahn_Regensburg,https://www.openstreetmap.org/relation/5990703
27,germany_league_2,2. Bundesliga,1,FC St. Pauli,Millerntor-Stadion,29.546,Harald-Stender-Platz 1,20359,Hamburg,HH,53.55458,9.96773,fcstpauli.com,https://de.wikipedia.org/wiki/FC_St._Pauli,https://en.wikipedia.org/wiki/FC_St._Pauli,https://www.openstreetmap.org/way/381109520
28,germany_league_2,2. Bundesliga,1,SV Darmstadt 98,Merck-Stadion am Böllenfalltor,11.000,Nieder-Ramstädter Straße 170,64285,Darmstadt,HE,49.85773,8.67239,sv98.de,https://de.wikipedia.org/wiki/SV_Darmstadt_98,https://en.wikipedia.org/wiki/SV_Darmstadt_98,https://www.openstreetmap.org/node/5895693869
29,germany_league_2,2. Bundesliga,1,VfL Bochum,Vonovia Ruhrstadion,27.599,Castroper Straße 145,44791,Bochum,NW,51.48991,7.23647,vfl-bochum.de,https://de.wikipedia.org/wiki/VfL_Bochum,https://en.wikipedia.org/wiki/VfL_Bochum,https://www.openstreetmap.org/way/18690902
30,germany_league_2,2. Bundesliga,1,Dynamo Dresden,Rudolf-Harbig-Stadion,32.066,Lennéstraße 12,01069,Dresden,SN,51.04090,13.74804,dynamo-dresden.de,https://de.wikipedia.org/wiki/Dynamo_Dresden,https://en.wikipedia.org/wiki/Dynamo_Dresden,https://www.openstreetmap.org/way/101383573
31,germany_league_2,2. Bundesliga,1,SpVgg Greuther Fürth,Sportpark Ronhof Thomas Sommer,18.000,Laubenweg 60,90765,Fürth,BY,49.48700,10.99921,greuther-fuerth.de,https://de.wikipedia.org/wiki/SpVgg_Greuther_Fürth,https://en.wikipedia.org/wiki/SpVgg_Greuther_Fürth,https://www.openstreetmap.org/way/106578003
32,germany_league_2,2. Bundesliga,1,FC Erzgebirge Aue,Erzgebirgsstadion,16.458,Lößnitzer Straße,08280,Aue,SN,50.59782,12.71128,fc-erzgebirge.de,https://de.wikipedia.org/wiki/FC_Erzgebirge_Aue,https://en.wikipedia.org/wiki/FC_Erzgebirge_Aue,https://www.openstreetmap.org/way/440664813
33,germany_league_2,2. Bundesliga,1,SV Sandhausen,BWT-Stadion am Hardtwald,15.414,Jahnstraße 1,69207,Sandhausen,BW,49.33207,8.64772,svs1916.de,https://de.wikipedia.org/wiki/SV_Sandhausen,https://en.wikipedia.org/wiki/SV_Sandhausen,https://www.openstreetmap.org/way/223139712
34,germany_league_2,2. Bundesliga,1,VfL Osnabrück,Stadion an der Bremer Brücke,16.667,Scharnhorststraße 50,49084,Osnabrück,NI,52.28082,8.07129,vfl.de,https://de.wikipedia.org/wiki/VfL_Osnabrück,https://en.wikipedia.org/wiki/VfL_Osnabr%C3%BCck,https://www.openstreetmap.org/way/181867737
35,germany_league_2,2. Bundesliga,1,Karlsruhe SC,Wildparkstadion,18.163,Adenauerring 17,76131,Karlsruhe,BW,49.02002,8.41304,ksc.de,https://de.wikipedia.org/wiki/Karlsruher_SC,https://en.wikipedia.org/wiki/Karlsruher_SC,https://www.openstreetmap.org/way/87761383
36,germany_league_2,2. Bundesliga,1,SV Wehen Wiesbaden,Brita-Arena,12.566,Berliner Straße 9,65189,Wiesbaden,HE,50.07130,8.25657,svwehen-wiesbaden.de,https://de.wikipedia.org/wiki/SV_Wehen_Wiesbaden,https://en.wikipedia.org/wiki/SV_Wehen_Wiesbaden,https://www.openstreetmap.org/way/201467283
37,germany_league_3,3. Liga,1,FC Ingolstadt 04,Audi-Sportpark,15.200,Am Sportpark 1b,85053,Ingolstadt,BY,48.74546,11.48552,fcingolstadt.de,https://de.wikipedia.org/wiki/FC_Ingolstadt_04,https://en.wikipedia.org/wiki/FC_Ingolstadt_04,https://www.openstreetmap.org/way/67237986
38,germany_league_3,3. Liga,1,1. FC Magdeburg,MDCC-Arena,25.500,Heinz-Krügel-Platz 1,39114,Magdeburg,ST,52.12513,11.67079,1.fc-magdeburg.de,https://de.wikipedia.org/wiki/1._FC_Magdeburg,https://en.wikipedia.org/wiki/1._FC_Magdeburg,https://www.openstreetmap.org/way/28489919
39,germany_league_3,3. Liga,1,MSV Duisburg,Schauinsland-Reisen-Arena,31.500,Margaretenstraße 5–7,47055,Duisburg,NW,51.40901,6.77869,msv-duisburg.de,https://de.wikipedia.org/wiki/MSV_Duisburg,https://en.wikipedia.org/wiki/MSV_Duisburg,https://www.openstreetmap.org/way/23610764
40,germany_league_3,3. Liga,1,Hallescher FC,Erdgas Sportpark,15.057,Kantstraße 2,06110,Halle (Saale),ST,51.46534,11.96214,hallescherfc.de,https://de.wikipedia.org/wiki/Hallescher_FC,https://en.wikipedia.org/wiki/Hallescher_FC,https://www.openstreetmap.org/way/130575966
41,germany_league_3,3. Liga,1,Würzburger Kickers,flyeralarm Arena,13.090,Mittlerer Dallenbergweg 49,97082,Würzburg,BY,49.76720,9.93290,wuerzburger-kickers.de,https://de.wikipedia.org/wiki/Würzburger_Kickers,https://en.wikipedia.org/wiki/W%C3%BCrzburger_Kickers,https://www.openstreetmap.org/way/663167079
42,germany_league_3,3. Liga,1,Hansa Rostock,Ostseestadion,29.000,Kopernikusstraße 17,18057,Rostock,MV,54.08497,12.09512,fc-hansa.de,https://de.wikipedia.org/wiki/Hansa_Rostock,https://en.wikipedia.org/wiki/F.C._Hansa_Rostock,https://www.openstreetmap.org/way/33781737
43,germany_league_3,3. Liga,1,FSV Zwickau,Stadion Zwickau,10.134,Stadionallee 1,08066,Zwickau,SN,50.72854,12.51936,fsv-zwickau.de,https://de.wikipedia.org/wiki/FSV_Zwickau,https://en.wikipedia.org/wiki/FSV_Zwickau,https://www.openstreetmap.org/way/429317210
44,germany_league_3,3. Liga,1,SC Preußen 06 e. V. Münster,Preußenstadion,14.300,Hammer Straße 302,48153,Münster,NW,51.92985,7.62457,scpreussen-muenster.de,https://de.wikipedia.org/wiki/Preußen_Münster,https://en.wikipedia.org/wiki/SC_Preußen_Münster,https://www.openstreetmap.org/relation/1360363
45,germany_league_3,3. Liga,1,1. FC Kaiserslautern,Fritz-Walter-Stadion,49.850,Fritz-Walter-Straße 1,67663,Kaiserslautern,RP,49.43470,7.77643,fck.de,https://de.wikipedia.org/wiki/1._FC_Kaiserslautern,https://en.wikipedia.org/wiki/1._FC_Kaiserslautern,https://www.openstreetmap.org/way/27880400
46,germany_league_3,3. Liga,1,SpVgg Unterhaching,Sportpark Unterhaching,15.053,Am Sportpark 9,82008,Unterhaching,BY,48.07378,11.61584,spvggunterhaching.de,https://de.wikipedia.org/wiki/SpVgg_Unterhaching,https://en.wikipedia.org/wiki/SpVgg_Unterhaching,https://www.openstreetmap.org/way/4073020
47,germany_league_3,3. Liga,1,KFC Uerdingen 05,Merkur Spiel-Arena,54.600,Arena-Straße 1,40474,Düsseldorf,NW,51.26164,6.73314,kfc-uerdingen.de,https://de.wikipedia.org/wiki/KFC_Uerdingen_05,https://en.wikipedia.org/wiki/KFC_Uerdingen_05,https://www.openstreetmap.org/way/24547706
48,germany_league_3,3. Liga,1,TSV 1860 München,Grünwalder Stadion,15.000,Grünwalder Straße 2–4,81547,München,BY,48.11100,11.57448,tsv1860.org,https://de.wikipedia.org/wiki/TSV_1860_München,https://en.wikipedia.org/wiki/TSV_1860_Munich,https://www.openstreetmap.org/relation/4548483
49,germany_league_3,3. Liga,1,SV Meppen,Hänsch-Arena,13.696,Lathener Straße 15A,49716,Meppen,NI,52.70802,7.29800,svmeppen.de,https://de.wikipedia.org/wiki/SV_Meppen,https://en.wikipedia.org/wiki/SV_Meppen,https://www.openstreetmap.org/way/196582775
50,germany_league_3,3. Liga,1,FC Carl Zeiss Jena,Ernst-Abbe-Sportfeld,10.445,Oberaue 3,07745,Jena,TH,50.91606,11.58291,fc-carlzeiss-jena.de,https://de.wikipedia.org/wiki/FC_Carl_Zeiss_Jena,https://en.wikipedia.org/wiki/FC_Carl_Zeiss_Jena,https://www.openstreetmap.org/way/114681790
51,germany_league_3,3. Liga,1,SG Sonnenhof Großaspach,mechatronik Arena,10.001,Im Fautenhau 1,71546,Aspach-Großaspach,BW,48.98053,9.39294,sg94.de,https://de.wikipedia.org/wiki/SG_Sonnenhof_Großaspach,https://en.wikipedia.org/wiki/SG_Sonnenhof_Großaspach,https://www.openstreetmap.org/way/372567612
52,germany_league_3,3. Liga,1,Eintracht Braunschweig,Eintracht-Stadion,23.325,Hamburger Straße 210,38112,Braunschweig,NI,52.29012,10.52157,eintracht.com,https://de.wikipedia.org/wiki/Eintracht_Braunschweig,https://en.wikipedia.org/wiki/Eintracht_Braunschweig,https://www.openstreetmap.org/way/110564704
53,germany_league_3,3. Liga,1,Chemnitzer FC,Stadion – An der Gellertstraße,15.200,Gellertstraße 25,09130,Chemnitz,SN,50.84219,12.94565,chemnitzerfc.de,https://de.wikipedia.org/wiki/Chemnitzer_FC,https://en.wikipedia.org/wiki/Chemnitzer_FC,https://www.openstreetmap.org/way/653342937
54,germany_league_3,3. Liga,1,SV Waldhof Mannheim,Carl-Benz-Stadion,25.721,Theodor-Heuss-Anlage 20,68165,Mannheim,BW,49.47948,8.50250,svw07.de,https://de.wikipedia.org/wiki/SV_Waldhof_Mannheim,https://en.wikipedia.org/wiki/SV_Waldhof_Mannheim,https://www.openstreetmap.org/way/181915119
55,germany_league_3,3. Liga,1,FC Viktoria Köln,Sportpark Höhenberg,6.214,Höhenberger Ring,51103,Köln,NW,50.94517,7.03043,viktoria1904.de,https://de.wikipedia.org/wiki/FC_Viktoria_Köln,https://en.wikipedia.org/wiki/FC_Viktoria_Köln,https://www.openstreetmap.org/way/26490834
56,germany_league_3,3. Liga,2,FC Bayern München II,Grünwalder Stadion,15.000,Grünwalder Straße 2-4,81547,München,BY,48.11100,11.57448,fcbayern.com,https://de.wikipedia.org/wiki/FC_Bayern_München#Die_zweite_Mannschaft,https://en.wikipedia.org/wiki/FC_Bayern_Munich,https://www.openstreetmap.org/relation/4548483
57,germany_league_4,Regionalliga Nord,2,VfL Wolfsburg II,AOK Stadion Wolfsburg,5.200,Allerpark 2,38448,Wolfsburg,NI,52.43458,10.80689,vfl-wolfsburg.de,https://de.wikipedia.org/wiki/VfL_Wolfsburg,https://en.wikipedia.org/wiki/VfL_Wolfsburg,https://www.openstreetmap.org/way/330262056
58,germany_league_4,Regionalliga Nord,1,VfB Lübeck,Stadion Lohmühle,15.292,Bei der Lohmühle 13,23554,Lübeck,SH,50.65731,7.81872,vfb-luebeck.de,https://de.wikipedia.org/wiki/VfB_Lübeck,https://en.wikipedia.org/wiki/VfB_Lübeck,https://www.openstreetmap.org/node/819234043
59,germany_league_4,Regionalliga Nord,2,Werder Bremen II,Weserstadion Platz 11,5.500,Am Weserstadion 8,28205,Bremen,HB,53.06374,8.84297,werder.de,https://de.wikipedia.org/wiki/Werder_Bremen,https://en.wikipedia.org/wiki/Werder_Bremen,https://www.openstreetmap.org/way/232421157
60,germany_league_4,Regionalliga Nord,1,SC Weiche Flensburg 08,Manfred-Werner-Stadion,2.500,Bredstedter Straße 2,24941,Flensburg,SH,54.76036,9.40689,weiche-liga.de,https://de.wikipedia.org/wiki/SC_Weiche_Flensburg_08,https://en.wikipedia.org/wiki/SC_Weiche_Flensburg_08,https://www.openstreetmap.org/way/374397741
61,germany_league_4,Regionalliga Nord,1,SV Drochtersen/Assel,Kehdinger Stadion,3.000,Am Sportplatz,21706,Drochtersen,NI,53.70385,9.38045,sv-drochtersen-assel.com,https://de.wikipedia.org/wiki/SV_Drochtersen/Assel,https://en.wikipedia.org/wiki/SV_Drochtersen/Assel,https://www.openstreetmap.org/way/667512316
62,germany_league_4,Regionalliga Nord,2,Hannover 96 II,Eilenriedestadion,3.000,Clausewitzstraße 4,30175,Hannover,NI,52.37658,9.77290,hannover92.de,https://de.wikipedia.org/wiki/Hannover_96,https://en.wikipedia.org/wiki/Hannover_96,https://www.openstreetmap.org/way/179158024
63,germany_league_4,Regionalliga Nord,2,Hamburger SV II,Wolfgang-Meyer-Sportanlage,1.318,Hagenbeckstraße 124,22527,Hamburg,HH,53.58924,9.94451,hsv-ev.de,https://de.wikipedia.org/wiki/Hamburger_SV,https://en.wikipedia.org/wiki/Hamburger_SV,https://www.openstreetmap.org/way/75900927
64,germany_league_4,Regionalliga Nord,1,BSV Rehden,Sportplatz Waldsportstätten,4.350,Dickeler Straße 22,49453,Rehden,NI,52.61632,8.48309,bsv-rehden.de,https://de.wikipedia.org/wiki/BSV_Rehden,https://en.wikipedia.org/wiki/BSV_Schwarz-Weiß_Rehden,https://www.openstreetmap.org/way/112312861
65,germany_league_4,Regionalliga Nord,1,VfB Oldenburg,Marschweg-Stadion,15.200,Marschweg,26122,Oldenburg,NI,53.12955,8.20645,vfb-oldenburg.de,https://de.wikipedia.org/wiki/VfB_Oldenburg,https://en.wikipedia.org/wiki/VfB_Oldenburg,https://www.openstreetmap.org/way/22774077
66,germany_league_4,Regionalliga Nord,2,Holstein Kiel II,Holstein-Stadion,15.034,Westring 501,24106,Kiel,SH,54.34918,10.12370,holstein-kiel.de,https://de.wikipedia.org/wiki/Holstein_Kiel,https://en.wikipedia.org/wiki/Holstein_Kiel,https://www.openstreetmap.org/relation/277125
67,germany_league_4,Regionalliga Nord,1,TSV Havelse,Wilhelm-Langrehr-Stadion,3.500,Hannoversche Straße 90-92,30823,Garbsen,NI,52.40792,9.60095,tsv-havelse.de,https://de.wikipedia.org/wiki/TSV_Havelse,https://en.wikipedia.org/wiki/TSV_Havelse,https://www.openstreetmap.org/way/28193746
68,germany_league_4,Regionalliga Nord,1,SSV Jeddeloh,53acht-Arena,2.000,Wischenstraße 46,26188,Edewecht-Jeddeloh,NI,53.09128,8.05833,ssv-jeddeloh.de,https://de.wikipedia.org/wiki/SSV_Jeddeloh,https://en.wikipedia.org/wiki/SSV_Jeddeloh,https://www.openstreetmap.org/way/25540000
69,germany_league_4,Regionalliga Nord,1,Eintracht Norderstedt,Edmund-Plambeck-Stadion,5.068,Ochsenzoller Straße 58,22848,Norderstedt,SH,53.67702,9.97707,eintrachtnorderstedt.de,https://de.wikipedia.org/wiki/Eintracht_Norderstedt,https://en.wikipedia.org/wiki/FC_Eintracht_Norderstedt_03,Missing
70,germany_league_4,Regionalliga Nord,2,FC St. Pauli II,Edmund-Plambeck-Stadion,5.068,Ochsenzoller Straße 58,22848,Norderstedt,SH,53.67702,9.97707,fcstpauli.com,https://de.wikipedia.org/wiki/FC_St._Pauli,https://en.wikipedia.org/wiki/FC_St._Pauli,Missing
71,germany_league_4,Regionalliga Nord,1,Lüneburger SK Hansa,Sportanlage Sülzwiesen,4.000,Am Grasweg 27,21339,Lüneburg,NI,52.37657,9.77290,lsk-hansa.de,https://de.wikipedia.org/wiki/L%C3%BCneburger_SK_Hansa,https://en.wikipedia.org/wiki/L%C3%BCneburger_SK_Hansa,https://www.openstreetmap.org/way/144974205
72,germany_league_4,Regionalliga Nord,1,Hannoverscher SC,HSC-Stadion Constantinstraße,3.000,Constantinstraße 86 ,30177,Hannover-List,NI,52.40260,9.76750,hsc-hannover.de,https://de.wikipedia.org/wiki/Hannoverscher_SC,https://en.wikipedia.org/wiki/Hannoverscher_SC,https://www.openstreetmap.org/way/32209700
73,germany_league_4,Regionalliga Nord,1,Altona 93,Adolf-Jäger-Kampfbahn,8.000,Griegstraße 62,22763,Hamburg,HH,53.55550,9.91152,altona93.de,https://de.wikipedia.org/wiki/Altona_93,https://en.wikipedia.org/wiki/Altonaer_FC_von_1893,https://www.openstreetmap.org/way/24842351
74,germany_league_4,Regionalliga Nord,1,Heider SV,Stadion an der Meldorfer Straße,11.000,Meldorfer Straße 30,25746,Heide,SH,54.18952,9.08725,heidersv.de,https://de.wikipedia.org/wiki/Heider_SV,https://en.wikipedia.org/wiki/Heider_SV,https://www.openstreetmap.org/way/114926529
75,germany_league_4,Regionalliga Nordost,1,Energie Cottbus,Stadion der Freundschaft,22.528,Am Eliaspark 1,03042,Cottbus,BB,51.75158,14.34560,fcenergie.de,https://de.wikipedia.org/wiki/Energie_Cottbus,https://en.wikipedia.org/wiki/FC_Energie_Cottbus,https://www.openstreetmap.org/way/150076813
76,germany_league_4,Regionalliga Nordost,1,Berliner AK 07,Poststadion Berlin,10.000,Lehrter Straße 59,10557,Berlin,BE,52.53002,13.35931,bak07.de,https://de.wikipedia.org/wiki/Berliner_AK_07,https://en.wikipedia.org/wiki/Berliner_AK_07,https://www.openstreetmap.org/way/4676150
77,germany_league_4,Regionalliga Nordost,1,Wacker Nordhausen,Albert-Kuntz-Sportpark,8.088,Parkallee 8a,99734,Nordhausen,TH,51.52118,10.78303,wacker90.de,https://de.wikipedia.org/wiki/Wacker_Nordhausen,https://en.wikipedia.org/wiki/FSV_Wacker_90_Nordhausen,https://www.openstreetmap.org/way/391524454
78,germany_league_4,Regionalliga Nordost,2,Hertha BSC II,Stadion auf dem Wurfplatz,5.400,Hanns-Braun-Straße ,14053,Berlin-Charlottenburg,BE,52.51717,13.23674,herthabsc.de,https://de.wikipedia.org/wiki/Hertha_BSC,https://en.wikipedia.org/wiki/Hertha_BSC,https://www.openstreetmap.org/way/24296069
79,germany_league_4,Regionalliga Nordost,1,FC Rot-Weiß Erfurt,Steigerwaldstadion,18.611,Mozartallee 3,99096,Erfurt,TH,50.96025,11.03726,rot-weiss-erfurt.de,https://de.wikipedia.org/wiki/FC_Rot-Weiß_Erfurt,https://en.wikipedia.org/wiki/FC_Rot-Weiß_Erfurt,https://www.openstreetmap.org/way/37437787
80,germany_league_4,Regionalliga Nordost,1,1. FC Lokomotive Leipzig,Bruno-Plache-Stadion,10.900,Connewitzer Straße 21,4289,Leipzig,SN,51.30296,12.41926,lok-leipzig.com,https://de.wikipedia.org/wiki/1._FC_Lokomotive_Leipzig_(2003),https://en.wikipedia.org/wiki/1._FC_Lokomotive_Leipzig,https://www.openstreetmap.org/way/32995500
81,germany_league_4,Regionalliga Nordost,1,SV Babelsberg 03,Karl-Liebknecht-Stadion,10.786,Karl-Liebknecht-Straße 90,14482,Potsdam,BB,52.39912,13.09478,babelsberg03.de,https://de.wikipedia.org/wiki/SV_Babelsberg_03,https://en.wikipedia.org/wiki/SV_Babelsberg_03,https://www.openstreetmap.org/way/13999359
82,germany_league_4,Regionalliga Nordost,1,VfB Germania Halberstadt,Friedensstadion Halberstadt,5.000,Spiegelsbergenweg 79,38820,Halberstadt,ST,51.87630,11.04998,vfbgermaniahalberstadt.de,https://de.wikipedia.org/wiki/VfB_Germania_Halberstadt,https://en.wikipedia.org/wiki/VfB_Germania_Halberstadt,Missing
83,germany_league_4,Regionalliga Nordost,1,VfB Auerbach,VfB-Stadion Auerbach/Vogtl.,5.000,Ziegeleiweg 20,08209,Auerbach/Vogtland,SN,50.50616,12.38666,vfb-auerbach.de,https://de.wikipedia.org/wiki/VfB_Auerbach,https://en.wikipedia.org/wiki/VfB_Auerbach,https://www.openstreetmap.org/way/72745820
84,germany_league_4,Regionalliga Nordost,1,ZFC Meuselwitz,bluechip-Arena,5.260,Bergsiedlung 39,04610,Meuselwitz,TH,51.05367,12.28315,zfc.de,https://de.wikipedia.org/wiki/ZFC_Meuselwitz,https://en.wikipedia.org/wiki/ZFC_Meuselwitz,https://www.openstreetmap.org/relation/2759922
85,germany_league_4,Regionalliga Nordost,1,FC Viktoria 1889 Berlin,Stadion Lichterfelde,4.300,Ostpreußendamm 3-17,12207,Berlin,BE,52.43933,13.32396,viktoria-berlin.de,https://de.wikipedia.org/wiki/FC_Viktoria_1889_Berlin,https://en.wikipedia.org/wiki/FC_Viktoria_1889_Berlin,https://www.openstreetmap.org/way/4841754
86,germany_league_4,Regionalliga Nordost,1,BFC Dynamo,Friedrich-Ludwig-Jahn-Sportpark,19.708,Cantianstraße 24,10437,Berlin,BE,52.54306,13.40534,bfc.com,https://de.wikipedia.org/wiki/BFC_Dynamo,https://en.wikipedia.org/wiki/Berliner_FC_Dynamo,https://www.openstreetmap.org/way/258241195
87,germany_league_4,Regionalliga Nordost,1,FSV Union Fürstenwalde,Bonava-Arena,8.000,Hangelsberger Chaussee 1,15517,Fürstenwalde/Spree,BB,52.36661,14.03605,fsvunion.de,https://de.wikipedia.org/wiki/FSV_Union_Fürstenwalde,https://en.wikipedia.org/wiki/FSV_Union_Fürstenwalde,https://www.openstreetmap.org/way/96391438
88,germany_league_4,Regionalliga Nordost,1,VSG Altglienicke,Friedrich-Ludwig-Jahn-Sportpark,19.708,Cantianstraße 24,10437,Berlin,BE,52.54306,13.40534,vsg-altglienicke.de,https://de.wikipedia.org/wiki/VSG_Altglienicke,https://en.wikipedia.org/wiki/VSG_Altglienicke,https://www.openstreetmap.org/way/258241195
89,germany_league_4,Regionalliga Nordost,1,Bischofswerdaer FV 08,Volksbank Sportpark an der Wesenitz,10.000,Clara-Zetkin-Straße 6,01877,Bischofswerda,SN,51.12963,14.18643,bfv08.de,https://de.wikipedia.org/wiki/Bischofswerdaer_FV_08,https://en.wikipedia.org/wiki/Bischofswerdaer_FV_08,https://www.openstreetmap.org/relation/403281
90,germany_league_4,Regionalliga Nordost,1,FSV Optik Rathenow,Stadion Vogelgesang Rathenow,5.000,Zum Wolzensee 2,14712,Rathenow,BB,52.59741,12.36861,fsv-optik.de,https://de.wikipedia.org/wiki/FSV_Optik_Rathenow,https://en.wikipedia.org/wiki/FSV_Optik_Rathenow,Missing
91,germany_league_4,Regionalliga Nordost,1,SV Lichtenberg 47,Hans-Zoschke-Stadion,10.000,Normannenstraße 28,10367,Berlin,BE,52.51669,13.48684,lichtenberg47.de,https://de.wikipedia.org/wiki/SV_Lichtenberg_47,https://en.wikipedia.org/wiki/SV_Lichtenberg_47,https://www.openstreetmap.org/way/145722273
92,germany_league_4,Regionalliga Nordost,1,BSG Chemie Leipzig,Alfred-Kunze-Sportpark,4.999,Am Sportpark 2,04179,Leipzig,SN,51.35825,12.30767,chemie-leipzig.de,https://de.wikipedia.org/wiki/BSG_Chemie_Leipzig_(1997),https://en.wikipedia.org/wiki/BSG_Chemie_Leipzig_(1997),https://www.openstreetmap.org/way/20313355
93,germany_league_4,Regionalliga West,1,Sportfreunde Lotte,Frimo Stadion,10.059,Jahnstraße 8,49504,Lotte,NW,52.27093,7.92065,sf-lotte.de,https://de.wikipedia.org/wiki/Sportfreunde_Lotte,https://en.wikipedia.org/wiki/Sportfreunde_Lotte,https://www.openstreetmap.org/way/560328555
94,germany_league_4,Regionalliga West,1,SC Fortuna Köln,Südstadion,11.748,Vorgebirgstraße 76,50969,Köln,NW,50.91744,6.94357,fortuna-koeln.de,https://de.wikipedia.org/wiki/SC_Fortuna_Köln,https://en.wikipedia.org/wiki/SC_Fortuna_Köln,https://www.openstreetmap.org/way/27816189
95,germany_league_4,Regionalliga West,1,Rot-Weiß Oberhausen,Stadion Niederrhein,17.165,Lindnerstraße 2-6,46149,Oberhausen,NW,51.49363,6.85450,rwo-online.de,https://de.wikipedia.org/wiki/Rot-Weiß_Oberhausen,https://en.wikipedia.org/wiki/Rot-Weiß_Oberhausen,https://www.openstreetmap.org/relation/69474
96,germany_league_4,Regionalliga West,1,SV Rödinghausen,Häcker-Wiehenstadion,2.489,Auf der Drift 36,32289,Rödinghausen,NW,52.24939,8.50682,svroedinghausen.de,https://de.wikipedia.org/wiki/SV_Rödinghausen,https://en.wikipedia.org/wiki/SV_Rödinghausen,https://www.openstreetmap.org/way/360209575
97,germany_league_4,Regionalliga West,2,Borussia Mönchengladbach II,Grenzlandstadion,10.000,Seminarstraße 20,41236,Mönchengladbach,NW,48.24698,13.04583,borussia.de,https://de.wikipedia.org/wiki/Borussia_M%C3%B6nchengladbach,https://de.wikipedia.org/wiki/Borussia_M%C3%B6nchengladbach,https://www.openstreetmap.org/way/164751942
98,germany_league_4,Regionalliga West,2,Borussia Dortmund II,Stadion Rote Erde,9.999,Strobelallee 50,44139,Dortmund,NW,51.49281,7.45419,bvb.de,https://de.wikipedia.org/wiki/Borussia_Dortmund,https://en.wikipedia.org/wiki/Borussia_Dortmund,https://www.openstreetmap.org/way/17236684
99,germany_league_4,Regionalliga West,1,Alemannia Aachen,Tivoli,32.960,Krefelder Straße 205,52070,Aachen,NW,50.79314,6.09736,alemannia-aachen.de,https://de.wikipedia.org/wiki/Alemannia_Aachen,https://en.wikipedia.org/wiki/Alemannia_Aachen,https://www.openstreetmap.org/relation/1755976
100,germany_league_4,Regionalliga West,1,SC Verl,Sportclub Arena Verl,5.001,Poststraße 22,33415,Verl,NW,51.88339,8.51337,sportclub-verl.de,https://de.wikipedia.org/wiki/SC_Verl,https://en.wikipedia.org/wiki/SC_Verl,https://www.openstreetmap.org/way/35710101
101,germany_league_4,Regionalliga West,1,Rot-Weiss Essen,Stadion Essen,20.650,Hafenstraße 97A,45356,Essen,NW,51.48687,6.97665,rot-weiss-essen.de,https://de.wikipedia.org/wiki/Rot-Weiss_Essen,https://en.wikipedia.org/wiki/Rot-Weiss_Essen,https://www.openstreetmap.org/way/26346894
102,germany_league_4,Regionalliga West,2,1. FC Köln II,Franz-Kremer-Stadion,5.457,Franz-Kremer-Allee 1-3,50937,Köln,NW,50.90829,6.90571,fc.de,https://de.wikipedia.org/wiki/1._FC_Köln,https://en.wikipedia.org/wiki/1._FC_Köln_II,https://www.openstreetmap.org/way/49930449
103,germany_league_4,Regionalliga West,1,Wuppertaler SV,Stadion am Zoo,23.067,Hubertusallee 4,42117,Wuppertal,NW,51.23915,7.10498,wsv1954.de,https://de.wikipedia.org/wiki/Wuppertaler_SV,https://en.wikipedia.org/wiki/Wuppertaler_SV,https://www.openstreetmap.org/way/24480171
104,germany_league_4,Regionalliga West,1,SG Wattenscheid 09,Lohrheidestadion,16.233,Lohrheidestraße 82,44866,Bochum,NW,51.48577,7.11865,sgwattenscheid09.de,https://de.wikipedia.org/wiki/SG_Wattenscheid_09,https://en.wikipedia.org/wiki/SG_Wattenscheid_09,https://www.openstreetmap.org/way/663054792
105,germany_league_4,Regionalliga West,2,Fortuna Düsseldorf II,Paul-Janes-Stadion,7.200,Flinger Broich 87,40235,Düsseldorf,NW,51.22497,6.82717,f95.de,https://de.wikipedia.org/wiki/Fortuna_D%C3%BCsseldorf,https://en.wikipedia.org/wiki/Fortuna_Düsseldorf,https://www.openstreetmap.org/way/26204011
106,germany_league_4,Regionalliga West,1,SV Lippstadt 08,Liebelt-Arena,3.500,Wiedenbrücker Straße 83,59555,Lippstadt,NW,51.69351,8.34020,svlippstadt08.de,https://de.wikipedia.org/wiki/SV_Lippstadt_08,https://en.wikipedia.org/wiki/SV_Lippstadt_08,https://www.openstreetmap.org/way/37253119
107,germany_league_4,Regionalliga West,1,Bonner SC,Sportpark Nord,10.164,Kölnstraße 250,53117,Bonn,NW,50.74817,7.08450,bonner-sc.de,https://de.wikipedia.org/wiki/Bonner_SC,https://en.wikipedia.org/wiki/Bonner_SC,https://www.openstreetmap.org/relation/402799
108,germany_league_4,Regionalliga West,1,SV Bergisch Gladbach 09,BELKAW-Arena,10.500,Paffrather Straße 133 ,51465,Bergisch Gladbach,NW,50.99397,7.11968,bergischgladbach09.de,https://de.wikipedia.org/wiki/SV_Bergisch_Gladbach_09,https://en.wikipedia.org/wiki/SV_Bergisch_Gladbach_09,https://www.openstreetmap.org/way/26778972
109,germany_league_4,Regionalliga West,1,VfB Homberg,PCC-Stadion,3.000,Rheindeichstraße 50,47198,Duisburg,NW,51.46307,6.70301,vfb-homberg.de,https://de.wikipedia.org/wiki/VfB_Homberg,https://en.wikipedia.org/wiki/VfB_Homberg,https://www.openstreetmap.org/way/23613812
110,germany_league_4,Regionalliga West,2,FC Schalke 04 II,Trainingsplatz am Ernst-Kuzorra-Weg,1.200,Ernst-Kuzorra-Weg 1,45891,Gelsenkirchen,NW,51.55864,7.06401,schalke04.de,https://de.wikipedia.org/wiki/FC_Schalke_04,https://en.wikipedia.org/wiki/FC_Schalke_04,https://www.openstreetmap.org/way/22916691
111,germany_league_4,Regionalliga West,1,TuS Haltern,Stauseekampfbahn,4.000,Lippspieker,45721,Haltern am See,NW,51.74064,7.19770,tus-haltern.de,https://de.wikipedia.org/wiki/TuS_Haltern,Missing,https://www.openstreetmap.org/way/88067812
112,germany_league_4,Regionalliga Südwest,1,VfR Aalen,Ostalb Arena,14.500,Stadionweg 5,73430,Aalen,BW,48.84053,10.07218,vfr-aalen.de,https://de.wikipedia.org/wiki/VfR_Aalen,https://en.wikipedia.org/wiki/VfR_Aalen,https://www.openstreetmap.org/way/164637880
113,germany_league_4,Regionalliga Südwest,1,1. FC Saarbrücken,Hermann-Neuberger-Stadion,8.265,Stadionstraße 10,66333,Völklingen,SL,49.25721,6.87010,fc-saarbruecken.de,https://de.wikipedia.org/wiki/1._FC_Saarbrücken,https://en.wikipedia.org/wiki/1._FC_Saarbrücken,https://www.openstreetmap.org/way/26962568
114,germany_league_4,Regionalliga Südwest,1,FC 08 Homburg,Waldstadion Homburg,16.488,Obere Allee 1,66424,Homburg,SL,49.31617,7.35504,fc08homburg.de,https://de.wikipedia.org/wiki/FC_08_Homburg,https://en.wikipedia.org/wiki/FC_08_Homburg,https://www.openstreetmap.org/way/438209778
115,germany_league_4,Regionalliga Südwest,1,SV Elversberg,Ursapharm-Arena an der Kaiserlinde,10.000,Lindenstraße 7,66583,Spiesen-Elversberg,SL,49.31880,7.12171,sv07elversberg.de,https://de.wikipedia.org/wiki/SV_Elversberg,https://en.wikipedia.org/wiki/SV_Elversberg,https://www.openstreetmap.org/way/31339206
116,germany_league_4,Regionalliga Südwest,1,Kickers Offenbach,Sparda-Bank-Hessen-Stadion,20.500,Waldemar-Klein-Platz 1,63071,Offenbach am Main,HE,50.09466,8.79872,ofc.de,https://de.wikipedia.org/wiki/Kickers_Offenbach,https://en.wikipedia.org/wiki/Kickers_Offenbach,https://www.openstreetmap.org/way/26656405
117,germany_league_4,Regionalliga Südwest,1,SSV Ulm 1846 Fußball,Donaustadion,19.500,Stadionstraße 5,89073,Ulm,BW,48.40450,10.00954,ssvulm1846-fussball.de,https://de.wikipedia.org/wiki/SSV_Ulm_1846,https://en.wikipedia.org/wiki/SSV_Ulm_1846,https://www.openstreetmap.org/way/614515727
118,germany_league_4,Regionalliga Südwest,2,SC Freiburg II,Möslestadion,5.400,Waldseestraße 75,79117,Freiburg,BW,47.98396,7.88111,scfreiburg.com,https://de.wikipedia.org/wiki/SC_Freiburg,https://en.wikipedia.org/wiki/SC_Freiburg,https://www.openstreetmap.org/way/116671526
119,germany_league_4,Regionalliga Südwest,1,TSV Steinbach Haiger,SIBRE-Sportzentrum Haarwasen Haiger,4.700,Sportplatzstraße 120,35708,Haiger,HE,50.74020,8.19088,tsv-steinbach.de,https://de.wikipedia.org/wiki/TSV_Steinbach_Haiger,https://en.wikipedia.org/wiki/TSV_Steinbach_Haiger,https://www.openstreetmap.org/way/121374446
120,germany_league_4,Regionalliga Südwest,1,FK Pirmasens,Sportpark Husterhöhe,10.000,Georgia Avenue 1,66953,Pirmasens,RP,49.21853,7.60986,fk-pirmasens.com,https://de.wikipedia.org/wiki/FK_Pirmasens,https://en.wikipedia.org/wiki/FK_Pirmasens,https://www.openstreetmap.org/way/121942795
121,germany_league_4,Regionalliga Südwest,2,TSG 1899 Hoffenheim II,Dietmar-Hopp-Stadion,6.350,Silbergasse 45,74889,Sinsheim,BW,49.27827,8.84216,achtzehn99.de,https://de.wikipedia.org/wiki/TSG_1899_Hoffenheim,https://en.wikipedia.org/wiki/TSG_1899_Hoffenheim,https://www.openstreetmap.org/way/28482163
122,germany_league_4,Regionalliga Südwest,1,TSG Balingen,Bizerba-Arena,8.000,Tübinger Straße 71,72336,Balingen,BW,48.28208,8.85851,tsg-balingen.de,https://de.wikipedia.org/wiki/TSG_Balingen,https://en.wikipedia.org/wiki/TSG_Balingen,Missing
123,germany_league_4,Regionalliga Südwest,1,FSV Frankfurt,PSD Bank Arena,12.542,Richard-Herrmann-Platz 1,60386,Frankfurt am Main,HE,50.12810,8.72322,fsv-frankfurt.de,https://de.wikipedia.org/wiki/FSV_Frankfurt,https://en.wikipedia.org/wiki/FSV_Frankfurt,https://www.openstreetmap.org/way/37407253
124,germany_league_4,Regionalliga Südwest,1,FC-Astoria Walldorf,Stadion im Dietmar-Hopp-Sportpark,5.000,Schwetzinger Straße 92,69190,Walldorf,BW,49.31584,8.63845,fc-astoria-walldorf.de,https://de.wikipedia.org/wiki/FC-Astoria_Walldorf,https://en.wikipedia.org/wiki/FC_Astoria_Walldorf,https://www.openstreetmap.org/way/29139892
125,germany_league_4,Regionalliga Südwest,2,1. FSV Mainz 05 II,Stadion am Bruchweg,7.378,Dr.-Martin-Luther-King-Weg 15,55122,Mainz,RP,50.00096,8.24571,mainz05.de,https://de.wikipedia.org/wiki/1._FSV_Mainz_05,https://en.wikipedia.org/wiki/1._FSV_Mainz_05,https://www.openstreetmap.org/way/19881169
126,germany_league_4,Regionalliga Südwest,1,FC Gießen,Waldstadion Gießen,4.999,Zum Waldsportplatz 12,35394,Gießen,HE,50.58569,8.70447,fc-giessen.com,https://de.wikipedia.org/wiki/FC_Gießen,https://en.wikipedia.org/wiki/FC_Gießen,https://www.openstreetmap.org/way/209251738
127,germany_league_4,Regionalliga Südwest,1,Rot-Weiß Koblenz,Stadion Oberwerth,9.500,Jupp-Gauchel-Straße 10,56075,Koblenz,RP,50.33049,7.58661,rot-weiss-koblenz.de,https://de.wikipedia.org/wiki/Rot-Weiß_Koblenz,https://en.wikipedia.org/wiki/TuS_Rot-Weiß_Koblenz,https://www.openstreetmap.org/way/108260419
128,germany_league_4,Regionalliga Südwest,1,Bahlinger SC,Kaiserstuhlstadion,4.000,Stadenweg 13,79353,Bahlingen,BW,48.11900,7.74354,bahlingersc.de,https://de.wikipedia.org/wiki/Bahlinger_SC,https://en.wikipedia.org/wiki/Bahlinger_SC,https://www.openstreetmap.org/way/107255845
129,germany_league_4,Regionalliga Südwest,1,FC Bayern Alzenau,Städtisches Stadion am Prischoß,5.113,Prischoßstraße 57,63755,Alzenau,BY,50.07930,9.05810,bayern-alzenau.com,https://de.wikipedia.org/wiki/FC_Bayern_Alzenau,https://en.wikipedia.org/wiki/FC_Bayern_Alzenau,Missing
130,germany_league_4,Regionalliga Bayern,1,VfB Eichstätt,Liqui-Moly-Stadion,2.090,Am Sportplatz 8,85072,Eichstätt,BY,48.88776,11.19239,vfb-eichstaett.de,https://de.wikipedia.org/wiki/VfB_Eichstätt,https://en.wikipedia.org/wiki/VfB_Eichstätt,https://www.openstreetmap.org/way/652930200
131,germany_league_4,Regionalliga Bayern,1,Wacker Burghausen,Wacker-Arena,10.000,Franz-Alexander-Straße 7,84489,Burghausen,BY,48.17898,12.83639,sv-wacker.de,https://de.wikipedia.org/wiki/Wacker_Burghausen,https://en.wikipedia.org/wiki/SV_Wacker_Burghausen,https://www.openstreetmap.org/way/26954909
132,germany_league_4,Regionalliga Bayern,1,1. FC Schweinfurt 05,Willy-Sachs-Stadion,15.060,Ander-Kupfer-Platz 2,97424,Schweinfurt,BY,50.05133,10.20298,fcschweinfurt1905.de,https://de.wikipedia.org/wiki/1._FC_Schweinfurt_05,https://en.wikipedia.org/wiki/1._FC_Schweinfurt_05,https://www.openstreetmap.org/way/23646182
133,germany_league_4,Regionalliga Bayern,2,1. FC Nürnberg II,Max-Morlock-Platz,3.000,Valznerweiherstraße 200,90480,Nürnberg,BY,49.43594,11.13100,fcn.de,https://de.wikipedia.org/wiki/1._FC_N%C3%BCrnberg,https://en.wikipedia.org/wiki/1._FC_N%C3%BCrnberg,https://www.openstreetmap.org/way/47073829
134,germany_league_4,Regionalliga Bayern,1,FC Memmingen,Memminger Arena,5.990,Bodenseestraße 44,87700,Memmingen,BY,47.97922,10.16510,fc-memmingen.de,https://de.wikipedia.org/wiki/FC_Memmingen,https://en.wikipedia.org/wiki/FC_Memmingen,https://www.openstreetmap.org/way/244601560
135,germany_league_4,Regionalliga Bayern,1,FV Illertissen,Vöhlinstadion,3.000,Gottfried-Hart-Straße 8,89257,Illertissen,BY,48.21793,10.09228,fvillertissen.de,https://de.wikipedia.org/wiki/FV_Illertissen,https://en.wikipedia.org/wiki/FV_Illertissen,https://www.openstreetmap.org/way/25910165
136,germany_league_4,Regionalliga Bayern,1,TSV Buchbach,SMR-Arena,2.500,Jahnstraße 7,84428,Buchbach,BY,48.31492,12.27585,tsv-buchbach.de,https://de.wikipedia.org/wiki/TSV_Buchbach,https://en.wikipedia.org/wiki/TSV_Buchbach,https://www.openstreetmap.org/way/391060003
137,germany_league_4,Regionalliga Bayern,1,SpVgg Bayreuth,Hans-Walter-Wild-Stadion,21.500,Friedrich-Ebert-Straße 74,95448,Bayreuth,BY,49.94532,11.58722,spvgg-bayreuth.de,https://de.wikipedia.org/wiki/SpVgg_Bayreuth,https://en.wikipedia.org/wiki/SpVgg_Bayreuth,https://www.openstreetmap.org/way/439206373
138,germany_league_4,Regionalliga Bayern,1,Viktoria Aschaffenburg,Stadion am Schönbusch,9.000,Kleine Schönbuschallee 92,63741,Aschaffenburg,BY,49.97034,9.13000,sva01.de,https://de.wikipedia.org/wiki/Viktoria_Aschaffenburg,https://en.wikipedia.org/wiki/Viktoria_Aschaffenburg,https://www.openstreetmap.org/way/23261171
139,germany_league_4,Regionalliga Bayern,1,VfR Garching,GARMIN Stadion am See,4.000,Stadion am See,85748,Garching,BY,48.25985,11.64341,vfr-garching.de,https://de.wikipedia.org/wiki/VfR_Garching,https://en.wikipedia.org/wiki/VfR_Garching,https://www.openstreetmap.org/way/15554271
140,germany_league_4,Regionalliga Bayern,1,SV Schalding-Heining,Sportanlage am Reuthinger Weg,2.500,Reuthinger Weg 8 ,94036,Passau-Heining,BY,48.58781,13.37385,svs-passau.de,https://de.wikipedia.org/wiki/SV_Schalding-Heining,https://en.wikipedia.org/wiki/SV_Schalding-Heining,Missing
141,germany_league_4,Regionalliga Bayern,2,FC Augsburg II,Rosenaustadion,28.000,Stadionstraße 21,86159,Augsburg,BY,48.35537,10.87596,fcaugsburg.de,https://de.wikipedia.org/wiki/FC_Augsburg,https://en.wikipedia.org/wiki/FC_Augsburg,https://www.openstreetmap.org/way/26039742
142,germany_league_4,Regionalliga Bayern,2,SpVgg Greuther Fürth II,Sportzentrum Auf der Tulpe,3.000,Tulpenweg 60,90768,Fürth,BY,49.49376,10.90897,greuther-fuerth.de,https://de.wikipedia.org/wiki/SpVgg_Greuther_Fürth,https://en.wikipedia.org/wiki/SpVgg_Greuther_Fürth,https://www.openstreetmap.org/node/5697021574
143,germany_league_4,Regionalliga Bayern,1,TSV 1860 Rosenheim,Jahnstadion,6.000,Jahnstraße 25,83022,Rosenheim,BY,47.86709,12.00661,tsv1860-ro.de,https://de.wikipedia.org/wiki/TSV_1860_Rosenheim,https://en.wikipedia.org/wiki/TSV_1860_Rosenheim,https://www.openstreetmap.org/relation/2200575
144,germany_league_4,Regionalliga Bayern,1,SV Heimstetten,Sportpark Heimstetten,2.800,Am Sportpark 2,85551,Heimstetten,BY,48.16212,11.74826,sv-heimstetten.com,https://de.wikipedia.org/wiki/SV_Heimstetten,https://en.wikipedia.org/wiki/SV_Heimstetten,https://www.openstreetmap.org/way/34107867
145,germany_league_4,Regionalliga Bayern,1,TSV Aubstadt,Sportanlage Schulstraße,3.000,Schulstraße ,16845,Neustadt/Dosse,BB,50.35362,7.89194,tsv-aubstadt.de,https://de.wikipedia.org/wiki/TSV_Aubstadt,https://en.wikipedia.org/wiki/TSV_Aubstadt,https://www.openstreetmap.org/way/88216983
146,germany_league_4,Regionalliga Bayern,1,SV Türkgücü-Ataspor München,Städtisches Stadion an der Grünwalder Straße,15.000,Grünwalder Straße 2-4,81547,München,BY,48.11100,11.57448,turkgucu-ataspor.de,https://de.wikipedia.org/wiki/SV_T%C3%BCrkg%C3%BCc%C3%BC-Ataspor_M%C3%BCnchen,https://en.wikipedia.org/wiki/SV_T%C3%BCrkg%C3%BCc%C3%BC-Ataspor_M%C3%BCnchen,https://www.openstreetmap.org/relation/4548483
147,germany_league_4,Regionalliga Bayern,1,TSV 1896 Rain,Georg-Weber-Stadion,3.400,Donauwörther Straße 45 ,86638,Rain,BY,48.69524,10.90486,tsv1896rain.de,https://de.wikipedia.org/wiki/TSV_1896_Rain,https://en.wikipedia.org/wiki/TSV_Rain_am_Lech,https://www.openstreetmap.org/way/366257027